{
"type": "FeatureCollection",
"crs": { "type": "name", "properties": { "name": "urn:ogc:def:crs:OGC:1.3:CRS84" } },
                                                                                                                                  
"features": [
{ "type": "Feature", "properties": { "city": "San Mateo", "location": "East Third Ave; Along The Sf Bay", "swis_num": "41-AA-0010", "category": "Disposal", "name": "3rd Ave LF\/San Mateo Composting Site", "unit_num": 1, "operator": "City Of San Mateo Public Works", "owner": "City Of San Mateo Public Works", "op_status": "Closed", "activity": "Solid Waste Landfill", "regulated": "Permitted" }, "geometry": { "type": "Point", "coordinates": [ -122.2766, 37.5708, 0.0 ] } },
{ "type": "Feature", "properties": { "city": "Redwood City", "location": "766 Warrington Ave.", "swis_num": "41-AA-0197", "category": "Composting", "name": "Bay Area Organic Green Waste T\/S", "unit_num": 1, "operator": "Elmer Cano", "owner": "Darin Muneno", "op_status": "Active", "activity": "Chipping and Grinding Activity Fac.\/ Op.", "regulated": "Notification" }, "geometry": { "type": "Point", "coordinates": [ -122.20591, 37.48122, 0.0 ] } },
{ "type": "Feature", "properties": { "city": "East Palo Alto", "location": "2100 Bay Road", "swis_num": "41-CR-0005", "category": "Disposal", "name": "Bay Road", "unit_num": 1, "operator": "", "owner": "Palo Alto Boat Works", "op_status": "Closed", "activity": "Solid Waste Disposal Site", "regulated": "Pre-regulations" }, "geometry": { "type": "Point", "coordinates": [ -122.12255, 37.47619, 0.0 ] } },
{ "type": "Feature", "properties": { "city": "Redwood City", "location": "766 Warrington Ave.", "swis_num": "41-AA-0193", "category": "Composting", "name": "Bayview Greenwaste Transfer Station", "unit_num": 1, "operator": "Bayview Greenwaste Transfer Station", "owner": "Darin Muneno", "op_status": "Closed", "activity": "Chipping and Grinding Activity Fac.\/ Op.", "regulated": "Notification" }, "geometry": { "type": "Point", "coordinates": [ -122.20614, 37.48132, 0.0 ] } },
{ "type": "Feature", "properties": { "city": "Belmont", "location": "Belmont Island Pk,ne Of Marineworld Pkwy", "swis_num": "41-AA-0166", "category": "Disposal", "name": "Belmont Island Park Landfill", "unit_num": 1, "operator": "", "owner": "City Of Belmont", "op_status": "Closed", "activity": "Solid Waste Disposal Site", "regulated": "Unpermitted" }, "geometry": { "type": "Point", "coordinates": [ -122.2714, 37.5311, 0.0 ] } },
{ "type": "Feature", "properties": { "city": "South San Francisco", "location": "500 East Jamie Court", "swis_num": "41-AA-0185", "category": "Transfer\/Processing", "name": "Blue Line MRF And TS", "unit_num": 1, "operator": "Blue Line Transfer, Inc.", "owner": "Blue Line Transfer, Inc.", "op_status": "Active", "activity": "Large Volume Transfer\/Proc Facility", "regulated": "Permitted" }, "geometry": { "type": "Point", "coordinates": [ -122.38252, 37.64905, 0.0 ] } },
{ "type": "Feature", "properties": { "city": "Brisbane", "location": "245 Tunnel Rd.Between Bayshore Blvd & Hw", "swis_num": "41-AA-0061", "category": "Disposal", "name": "Brisbane Landfill", "unit_num": 1, "operator": "", "owner": "City Of Santa Maria", "op_status": "Closed", "activity": "Solid Waste Disposal Site", "regulated": "Unpermitted" }, "geometry": { "type": "Point", "coordinates": [ -122.39695, 37.69426, 0.0 ] } },
{ "type": "Feature", "properties": { "city": "Burlingame", "location": "1001 S Airport Road", "swis_num": "41-CR-0014", "category": "Disposal", "name": "Burlingame Disposal Site", "unit_num": 1, "operator": "", "owner": "City Of Burlingame", "op_status": "Closed", "activity": "Solid Waste Disposal Site", "regulated": "Permitted" }, "geometry": { "type": "Point", "coordinates": [ -122.3588, 37.5911, 0.0 ] } },
{ "type": "Feature", "properties": { "city": "Burlingame", "location": "Airport Blvd Near Broadway", "swis_num": "41-AA-0009", "category": "Disposal", "name": "Burlingame Refuse Disposal Area", "unit_num": 1, "operator": "City Of Burlingame", "owner": "City Of Burlingame", "op_status": "Closed", "activity": "Solid Waste Disposal Site", "regulated": "Permitted" }, "geometry": { "type": "Point", "coordinates": [ -122.35454, 37.59043, 0.0 ] } },
{ "type": "Feature", "properties": { "city": "Half Moon Bay", "location": "2 Mi N-E Half Moon Bay Off Hwy 92", "swis_num": "41-AA-0002", "category": "Composting", "name": "Corinda Los Trancos Landfill ( Ox Mtn)", "unit_num": 2, "operator": "Browning Ferris Industries of CA, Inc.", "owner": "Browning Ferris Industries of CA, Inc.", "op_status": "Active", "activity": "Chipping and Grinding Activity Fac.\/ Op.", "regulated": "Permitted" }, "geometry": { "type": "Point", "coordinates": [ -122.41078, 37.50057, 0.0 ] } },
{ "type": "Feature", "properties": { "city": "Half Moon Bay", "location": "2 Mi N-E Half Moon Bay Off Hwy 92", "swis_num": "41-AA-0002", "category": "Disposal", "name": "Corinda Los Trancos Landfill ( Ox Mtn)", "unit_num": 1, "operator": "Browning Ferris Industries of CA, Inc.", "owner": "Browning Ferris Industries of CA, Inc.", "op_status": "Active", "activity": "Solid Waste Landfill", "regulated": "Permitted" }, "geometry": { "type": "Point", "coordinates": [ -122.41078, 37.50057, 0.0 ] } },
{ "type": "Feature", "properties": { "city": "Brisbane", "location": "131 Industrial Way", "swis_num": "41-AA-0188", "category": "Composting", "name": "Davey Tree Company", "unit_num": 1, "operator": "Davey Tree Tree Company", "owner": "Universal Paragon Corporation", "op_status": "Active", "activity": "Chipping and Grinding Activity Fac.\/ Op.", "regulated": "Notification" }, "geometry": { "type": "Point", "coordinates": [ -122.4079, 37.70077, 0.0 ] } },
{ "type": "Feature", "properties": { "city": "Daly City", "location": "Skyline Drive", "swis_num": "41-CR-0010", "category": "Disposal", "name": "Dolger", "unit_num": 1, "operator": "", "owner": "City Of Daly City", "op_status": "Closed", "activity": "Solid Waste Disposal Site", "regulated": "Pre-regulations" }, "geometry": { "type": "Point", "coordinates": [ -122.4951, 37.668, 0.0 ] } },
{ "type": "Feature", "properties": { "city": "South San Francisco", "location": "114 South Maple", "swis_num": "41-AA-0195", "category": "Transfer\/Processing", "name": "Double O Site Services", "unit_num": 1, "operator": "Double O Site Services", "owner": "Richard Haskins", "op_status": "Closed", "activity": "Small Vol CDI Debris Proc. Operation", "regulated": "Notification" }, "geometry": { "type": "Point", "coordinates": [ -122.4157, 37.6494, 0.0 ] } },
{ "type": "Feature", "properties": { "city": "Redwood City", "location": "475 Seaport Boulevard", "swis_num": "41-AA-0190", "category": "Transfer\/Processing", "name": "Ferma-SRDC Recycling Operation I", "unit_num": 1, "operator": "Ferma-SRDC", "owner": "Port of Redwood City", "op_status": "Closed", "activity": "Medium Vol CDI Debris Proc. Fac.", "regulated": "Permitted" }, "geometry": { "type": "Point", "coordinates": [ -122.2105, 37.50453, 0.0 ] } },
{ "type": "Feature", "properties": { "city": "Redwood City", "location": "475 Seaport Boulevard", "swis_num": "41-AA-0191", "category": "Transfer\/Processing", "name": "Ferma-SRDC Recycling Operation II", "unit_num": 1, "operator": "Ferma-SRDC", "owner": "Port of Redwood City", "op_status": "Closed", "activity": "Medium Vol CD Wood Debris ChipGrind Fac.", "regulated": "Permitted" }, "geometry": { "type": "Point", "coordinates": [ -122.2107, 37.50452, 0.0 ] } },
{ "type": "Feature", "properties": { "city": "Pacifica", "location": "End Of Yosemite Ave.", "swis_num": "41-AA-0020", "category": "Disposal", "name": "Frontierland Park Landfill", "unit_num": 1, "operator": "", "owner": "City Of Pacifica", "op_status": "Closed", "activity": "Solid Waste Disposal Site", "regulated": "Unpermitted" }, "geometry": { "type": "Point", "coordinates": [ -122.46682, 37.58582, 0.0 ] } },
{ "type": "Feature", "properties": { "city": "Half Moon Bay", "location": "W. End-Poplar & Metzger Hmb.", "swis_num": "41-AA-0165", "category": "Disposal", "name": "Half Moon Bay Landfill", "unit_num": 1, "operator": "", "owner": "County Of San Mateo -Dept Parks & Recs", "op_status": "Closed", "activity": "Solid Waste Disposal Site", "regulated": "Permitted" }, "geometry": { "type": "Point", "coordinates": [ -122.43873, 37.45354, 0.0 ] } },
{ "type": "Feature", "properties": { "city": "Colma", "location": "#1 Sandfill Road  (1500 Hillside Blvd)", "swis_num": "41-AA-0008", "category": "Composting", "name": "Hillside Class III Disposal Site", "unit_num": 2, "operator": "Cypress-Amloc Land Company, Inc.", "owner": "Cypress-Amloc Land Company, Inc.", "op_status": "Closed", "activity": "Chipping and Grinding Activity Fac.\/ Op.", "regulated": "Permitted" }, "geometry": { "type": "Point", "coordinates": [ -122.444, 37.683, 0.0 ] } },
{ "type": "Feature", "properties": { "city": "Colma", "location": "#1 Sandfill Road  (1500 Hillside Blvd)", "swis_num": "41-AA-0008", "category": "Disposal", "name": "Hillside Class III Disposal Site", "unit_num": 1, "operator": "Cypress-Amloc Land Company, Inc.", "owner": "Cypress-Amloc Land Company, Inc.", "op_status": "Closed", "activity": "Solid Waste Landfill", "regulated": "Permitted" }, "geometry": { "type": "Point", "coordinates": [ -122.444, 37.683, 0.0 ] } },
{ "type": "Feature", "properties": { "city": "Colma", "location": "Junipero Serra Blvd Near Southgate Ave", "swis_num": "41-AA-0007", "category": "Disposal", "name": "Junipero Serra Solid Waste Disposal Site", "unit_num": 1, "operator": "", "owner": "Bocci\/Schneider Interests", "op_status": "Closed", "activity": "Solid Waste Disposal Site", "regulated": "Permitted" }, "geometry": { "type": "Point", "coordinates": [ -122.4684, 37.6766, 0.0 ] } },
{ "type": "Feature", "properties": { "city": "Menlo Park", "location": "North End Of Marsh Road @ Bayfront Expwy", "swis_num": "41-AA-0011", "category": "Disposal", "name": "Marsh Road Sanitary Landfill", "unit_num": 1, "operator": "", "owner": "City Of Menlo Park Public Works Dept", "op_status": "Closed", "activity": "Solid Waste Disposal Site", "regulated": "Permitted" }, "geometry": { "type": "Point", "coordinates": [ -122.1759, 37.4929, 0.0 ] } },
{ "type": "Feature", "properties": { "city": "Menlo Park", "location": "Northerly Terminal Of Marsh Road", "swis_num": "41-AA-0012", "category": "Disposal", "name": "Marsh Road Sanitary Landfill, South", "unit_num": 1, "operator": "", "owner": "City Of Menlo Park Public Works Dept", "op_status": "Closed", "activity": "Solid Waste Disposal Site", "regulated": "Permitted" }, "geometry": { "type": "Point", "coordinates": [ -122.1759, 37.4896, 0.0 ] } },
{ "type": "Feature", "properties": { "city": "Redwood City", "location": "867 Second Avenue", "swis_num": "41-AA-0181", "category": "Transfer\/Processing", "name": "Mr. Haul", "unit_num": 1, "operator": "Mr. Haul", "owner": "Gerritsen, Georgia", "op_status": "Active", "activity": "Limited Volume Transfer Operation", "regulated": "Notification" }, "geometry": { "type": "Point", "coordinates": [ -122.20109, 37.48196, 0.0 ] } },
{ "type": "Feature", "properties": { "city": "Daly City", "location": "Coast Highway #1 At Skyline Drive", "swis_num": "41-AA-0001", "category": "Disposal", "name": "Mussel Rock Disposal Site", "unit_num": 1, "operator": "", "owner": "City Of Daly City", "op_status": "Closed", "activity": "Solid Waste Disposal Site", "regulated": "Unpermitted" }, "geometry": { "type": "Point", "coordinates": [ -122.4952, 37.668, 0.0 ] } },
{ "type": "Feature", "properties": { "city": "Daly City", "location": "1680 Edgeworth Avenue", "swis_num": "41-AA-0015", "category": "Transfer\/Processing", "name": "Mussel Rock Transfer Station", "unit_num": 1, "operator": "Allied Waste Industries, Inc.", "owner": "City Of Daly City", "op_status": "Active", "activity": "Large Volume Transfer\/Proc Facility", "regulated": "Permitted" }, "geometry": { "type": "Point", "coordinates": [ -122.47471, 37.68657, 0.0 ] } },
{ "type": "Feature", "properties": { "city": "Pescadero", "location": "Pescadero Creek Rd., 3\/10 Mi Reservoir R", "swis_num": "41-CR-0008", "category": "Disposal", "name": "Pescadero (Old)", "unit_num": 1, "operator": "County Of San Mateo Public Works", "owner": "County Of San Mateo Public Works", "op_status": "Closed", "activity": "Solid Waste Disposal Site", "regulated": "To Be Determined" }, "geometry": { "type": "Point", "coordinates": [ -122.3984, 37.2465, 0.0 ] } },
{ "type": "Feature", "properties": { "city": "Pescadero", "location": "Bean Hollow And Artichoke Road", "swis_num": "41-AA-0013", "category": "Disposal", "name": "Pescadero Solid Waste Disposal", "unit_num": 1, "operator": "", "owner": "County Of San Mateo Public Works", "op_status": "Closed", "activity": "Solid Waste Disposal Site", "regulated": "Permitted" }, "geometry": { "type": "Point", "coordinates": [ -122.403, 37.2396, 0.0 ] } },
{ "type": "Feature", "properties": { "city": "Pescadero", "location": "Bean Hollow Road", "swis_num": "41-AA-0018", "category": "Transfer\/Processing", "name": "Pescadero Transfer Station", "unit_num": 1, "operator": "Browning-Ferris Industries, San Carlos", "owner": "County Of San Mateo Public Works", "op_status": "Active", "activity": "Limited Volume Transfer Operation", "regulated": "Notification" }, "geometry": { "type": "Point", "coordinates": [ -122.40141, 37.24065, 0.0 ] } },
{ "type": "Feature", "properties": { "city": "Brisbane", "location": "731 Schwerin Street", "swis_num": "41-AA-0194", "category": "Composting", "name": "PG&E Martin Service Center", "unit_num": 1, "operator": "Asplundh Company", "owner": "Pacific Gas and Electric Company", "op_status": "Closed", "activity": "Chipping and Grinding Activity Fac.\/ Op.", "regulated": "Notification" }, "geometry": { "type": "Point", "coordinates": [ -122.40853, 37.70249, 0.0 ] } },
{ "type": "Feature", "properties": { "city": "Redwood City", "location": "1 Beeger Rd.", "swis_num": "41-AA-0196", "category": "Composting", "name": "Redwood Debris Box Green Waste Operation", "unit_num": 1, "operator": "Redwood Building Materials", "owner": "Port of Redwood City", "op_status": "Active", "activity": "Chipping and Grinding Activity Fac.\/ Op.", "regulated": "Notification" }, "geometry": { "type": "Point", "coordinates": [ -122.21048, 37.50529, 0.0 ] } },
{ "type": "Feature", "properties": { "city": "Redwood City", "location": "NW of Marine Pkwy,SE of Belmont Stream", "swis_num": "41-AA-0169", "category": "Disposal", "name": "Redwood Shores Landfill", "unit_num": 1, "operator": "", "owner": "Peery\/Arrillaga", "op_status": "Closed", "activity": "Solid Waste Disposal Site", "regulated": "Unpermitted" }, "geometry": { "type": "Point", "coordinates": [ -122.25839, 37.53797, 0.0 ] } },
{ "type": "Feature", "properties": { "city": "San Bruno", "location": "1271 Montgomery Avenue", "swis_num": "41-AA-0014", "category": "Transfer\/Processing", "name": "San Bruno Transfer Station", "unit_num": 1, "operator": "San Bruno Garbage Company, Inc", "owner": "San Bruno Garbage Company, Inc", "op_status": "Active", "activity": "Large Volume Transfer\/Proc Facility", "regulated": "Permitted" }, "geometry": { "type": "Point", "coordinates": [ -122.41272, 37.64053, 0.0 ] } },
{ "type": "Feature", "properties": { "city": "San Mateo", "location": "9500 Pescadero Creek Rd., Loma Mar, Ca 9", "swis_num": "41-CR-0013", "category": "Disposal", "name": "San Mateo County Memorial Park", "unit_num": 1, "operator": "County Of San Mateo -Dept Parks & Recs", "owner": "County Of San Mateo -Dept Parks & Recs", "op_status": "Closed", "activity": "Solid Waste Disposal Site", "regulated": "To Be Determined" }, "geometry": { "type": "Point", "coordinates": [ -122.3072, 37.2737, 0.0 ] } },
{ "type": "Feature", "properties": { "city": "San Carlos", "location": "225 Shoreway Road", "swis_num": "41-AA-0016", "category": "Transfer\/Processing", "name": "Shoreway Environmental Center", "unit_num": 1, "operator": "Allied Waste Industries, Inc.", "owner": "South Bayside System Authority", "op_status": "Active", "activity": "Large Volume Transfer\/Proc Facility", "regulated": "Permitted" }, "geometry": { "type": "Point", "coordinates": [ -122.25849, 37.51788, 0.0 ] } },
{ "type": "Feature", "properties": { "city": "Brisbane", "location": "Bayshore Fwy On Ssf\/Brisbane City Line", "swis_num": "41-AA-0003", "category": "Disposal", "name": "Sierra Point Disposal Site", "unit_num": 1, "operator": "", "owner": "Lazzarini, Dave", "op_status": "Closed", "activity": "Solid Waste Disposal Site", "regulated": "Unpermitted" }, "geometry": { "type": "Point", "coordinates": [ -122.3872, 37.6735, 0.0 ] } },
{ "type": "Feature", "properties": { "city": "South San Francisco", "location": "95 Harbor Mstr Rd #1 End Of Oyster Pt Bl", "swis_num": "41-AA-0065", "category": "Disposal", "name": "So. San Francisco Municipal Dump\/Oyster", "unit_num": 1, "operator": "", "owner": "City Of South San Francisco", "op_status": "Closed", "activity": "Solid Waste Disposal Site", "regulated": "Unpermitted" }, "geometry": { "type": "Point", "coordinates": [ -122.38502, 37.66165, 0.0 ] } },
{ "type": "Feature", "properties": { "city": "South San Francisco", "location": "175 N. Access Rd.", "swis_num": "41-AA-0176", "category": "Composting", "name": "Tillo Products Co Composting Facility", "unit_num": 1, "operator": "Tillo Products Co", "owner": "So. S.F.\/San Bruno Water Quality Plant", "op_status": "Closed", "activity": "Composting Facility (Sludge)", "regulated": "Permitted" }, "geometry": { "type": "Point", "coordinates": [ -122.39826, 37.64017, 0.0 ] } },
{ "type": "Feature", "properties": { "city": "Menlo Park", "location": "3615 Haven Avenue", "swis_num": "41-AA-0187", "category": "Composting", "name": "Timberline Tree Service, Inc.", "unit_num": 1, "operator": "Timberline Tree Service, Inc.", "owner": "Three Sisters Ranch Enterprises, LLC", "op_status": "Closed", "activity": "Chipping and Grinding Activity Fac.\/ Op.", "regulated": "Notification" }, "geometry": { "type": "Point", "coordinates": [ -122.18466, 37.48735, 0.0 ] } },
{ "type": "Feature", "properties": { "city": "Redwood City", "location": "70 ChemicalWay", "swis_num": "41-AA-0189", "category": "Composting", "name": "Valley Crest: Landscape Maintenance", "unit_num": 1, "operator": "Valley Crest: Landscape Maintenance", "owner": "Kona Ventures LLC", "op_status": "Closed", "activity": "Chipping and Grinding Activity Fac.\/ Op.", "regulated": "Notification" }, "geometry": { "type": "Point", "coordinates": [ -122.2192, 37.49252, 0.0 ] } }
]
}
