{
"type": "FeatureCollection",
"crs": { "type": "name", "properties": { "name": "urn:ogc:def:crs:OGC:1.3:CRS84" } },
                                                                                                                                  
"features": [
{ "type": "Feature", "properties": { "dlat": 37.629499, "state": "CA", "services": "", "addr2": "", "hours": "2nd Wednesday 7pm", "phone": "(650) 589 3102", "addr1": "757 San Mateo Ave", "zip": 94066, "name": "American  Legion Post 409", "city": "San Bruno", "website": "", "dlon": -122.411334, "address": "757 San Mateo Ave\nSan Bruno, CA 94066" }, "geometry": { "type": "Point", "coordinates": [ -122.411334, 37.629499, 0.0 ] } },
{ "type": "Feature", "properties": { "dlat": 37.487981, "state": "CA", "services": "", "addr2": "", "hours": "2nd Wednesday 7pm", "phone": "(650) 365 1337", "addr1": "651 El Camino Real", "zip": 94063, "name": "American legion Post 105", "city": "Redwood City", "website": "", "dlon": -122.236873, "address": "651 El\nCamino Real Redwood City, CA 94063" }, "geometry": { "type": "Point", "coordinates": [ -122.236873, 37.487981, 0.0 ] } },
{ "type": "Feature", "properties": { "dlat": 37.606246, "state": "CA", "services": "", "addr2": "", "hours": "3rd Thursday 7pm", "phone": "(650) 355 4346", "addr1": "555 Buel Rd", "zip": 94044, "name": "American legion Post 238", "city": "Pacifica", "website": "", "dlon": -122.492592, "address": "555 Buel Rd\nPacifica, CA 94044" }, "geometry": { "type": "Point", "coordinates": [ -122.492592, 37.606246, 0.0 ] } },
{ "type": "Feature", "properties": { "dlat": 37.505052, "state": "CA", "services": "", "addr2": "", "hours": "3rd Tuesday 7pm", "phone": "(650) 728 9224", "addr1": "470 Capistrano Rd", "zip": 94019, "name": "American Legion Post 474", "city": "Half Moon Bay", "website": "", "dlon": -122.486469, "address": "470 Capistrano Rd\nHalf Moon Bay, CA 94019" }, "geometry": { "type": "Point", "coordinates": [ -122.486469, 37.505052, 0.0 ] } },
{ "type": "Feature", "properties": { "dlat": 37.508539, "state": "CA", "services": "", "addr2": "", "hours": "3rd Tuesday 6pm", "phone": "(650) 595 7998", "addr1": "1159 Bush St", "zip": 94070, "name": "American Legion Post 585", "city": "San Carlos", "website": "", "dlon": -122.263085, "address": "1159 Bush St\nSan Carlos, CA 94070" }, "geometry": { "type": "Point", "coordinates": [ -122.263085, 37.508539, 0.0 ] } },
{ "type": "Feature", "properties": { "dlat": 37.554261, "state": "CA", "services": "", "addr2": "", "hours": "3rd Thursdays 5pm", "phone": "(650) 345 7388", "addr1": "130 South Blvd", "zip": 94402, "name": "American Legion Post 82", "city": "San Mateo", "website": "", "dlon": -122.311968, "address": "130 South Blvd\nSan Mateo, CA 94402" }, "geometry": { "type": "Point", "coordinates": [ -122.311968, 37.554261, 0.0 ] } },
{ "type": "Feature", "properties": { "dlat": 37.447061, "state": "CA", "services": "Assistance with benefits and claims submission", "addr2": "Building 9, 2nd floor", "hours": "Every 1st Wednesday 9:00am - 3:00pm", "phone": "(650) 381-3528", "addr1": "4200 Farm Hill Blvd", "zip": 94061, "name": "Ca√±ada College", "city": "Redwood City", "website": "http:\/\/canadacollege.edu\/veterans\/index.php", "dlon": -122.260384, "address": "4200 Farm Hill Blvd\nRedwood City, CA 94061" }, "geometry": { "type": "Point", "coordinates": [ -122.260384, 37.447061, 0.0 ] } },
{ "type": "Feature", "properties": { "dlat": 37.505239, "state": "CA", "services": "Serves Areas: El Granada, Half Moon Bay, La Honda, Montara, Moss Beach, Pescadero, San Gregorio", "addr2": "", "hours": "", "phone": "(650) 726 9071", "addr1": "99 Avenue Alhambra", "zip": 94019, "name": "Coastside Hope", "city": "El Granada", "website": "", "dlon": -122.480215, "address": "99 Avenue\nAlhambra El Granada, CA 94019" }, "geometry": { "type": "Point", "coordinates": [ -122.480215, 37.505239, 0.0 ] } },
{ "type": "Feature", "properties": { "dlat": 37.531674, "state": "CA", "services": "Assistance with benefits and claims submission", "addr2": "Building 16, Room 150", "hours": "Every 2nd Wednesday 9:00am - 3:00pm", "phone": "(650) 574-6675", "addr1": "1700 W Hillsdale Blvd", "zip": 94402, "name": "College of San Mateo", "city": "San mateo", "website": "http:\/\/collegeofsanmateo.edu\/veterans\/", "dlon": -122.334040, "address": "1700 W Hillsdale Blvd\nSan mateo, CA 94402" }, "geometry": { "type": "Point", "coordinates": [ -122.33404, 37.531674, 0.0 ] } },
{ "type": "Feature", "properties": { "dlat": 37.520567, "state": "CA", "services": "Assistance with benefits and claims submission", "addr2": "Building B", "hours": "M-F 8am-5PM", "phone": "(650) 802-6598", "addr1": "400 Harbor Blvd", "zip": 94002, "name": "County Veterans Services Office", "city": "Belmont", "website": "http:\/\/hsa.smcgov.org\/veterans", "dlon": -122.267839, "address": "400 Harbor Blvd\nBelmont, CA 94002" }, "geometry": { "type": "Point", "coordinates": [ -122.267839, 37.520567, 0.0 ] } },
{ "type": "Feature", "properties": { "dlat": 37.644432, "state": "CA", "services": "Assistance with benefits and claims submission", "addr2": "", "hours": "Thursday 9:00am - 3:30pm", "phone": "(650) 802-6598", "addr1": "1487 Huntington Ave", "zip": 94080, "name": "CVSO Human Service Agency", "city": "South San Francisco", "website": "http:\/\/hsa.smcgov.org\/veterans", "dlon": -122.421913, "address": "1487 Huntington Ave South\nSan Francisco, CA 94080" }, "geometry": { "type": "Point", "coordinates": [ -122.421913, 37.644432, 0.0 ] } },
{ "type": "Feature", "properties": { "dlat": 37.691122, "state": "CA", "services": "Serves Areas: Daly City, Broadmoor, Colma", "addr2": "", "hours": "", "phone": "(650) 991 8007", "addr1": "350 90th Street", "zip": 94015, "name": "Daly City Community Services Center", "city": "Daly City", "website": "", "dlon": -122.473556, "address": "350 90th Street\nDaly City, CA 94015" }, "geometry": { "type": "Point", "coordinates": [ -122.473556, 37.691122, 0.0 ] } },
{ "type": "Feature", "properties": { "dlat": 37.471846, "state": "CA", "services": "Serves Areas: East Palo Alto and Menlo Park", "addr2": "", "hours": "", "phone": "(650) 330 7432", "addr1": "1798 Bay Road", "zip": 94303, "name": "EL Concilio of San Mateo", "city": "East Palo Alto", "website": "", "dlon": -122.134412, "address": "1798 Bay Road East\nPalo Alto, CA 94303" }, "geometry": { "type": "Point", "coordinates": [ -122.134412, 37.471846, 0.0 ] } },
{ "type": "Feature", "properties": { "dlat": 37.477693, "state": "CA", "services": "Serves Areas: Redwood City, Portola Valley, North Fair Oaks, Woodside, Atherton", "addr2": "", "hours": "", "phone": "(650) 780 7500", "addr1": "2600 Middlefield Road", "zip": 94063, "name": "Fair Oaks Community Center", "city": "Redwood City", "website": "", "dlon": -122.212938, "address": "2600 Middlefield Road\nRedwood City, CA 94063" }, "geometry": { "type": "Point", "coordinates": [ -122.212938, 37.477693, 0.0 ] } },
{ "type": "Feature", "properties": { "dlat": 37.635073, "state": "CA", "services": "Serves Areas: Pacifica, North of Devils Slide", "addr2": "", "hours": "", "phone": "(650) 738 7470", "addr1": "1809 Palmetto Drive", "zip": 94044, "name": "Pacifica Resource Center", "city": "Pacifica", "website": "", "dlon": -122.492055, "address": "1809 Palmetto Drive\nPacifica, CA 94044" }, "geometry": { "type": "Point", "coordinates": [ -122.492055, 37.635073, 0.0 ] } },
{ "type": "Feature", "properties": { "dlat": 37.457682, "state": "CA", "services": "Assistance with benefits and claims submission", "addr2": "", "hours": "Every last Friday 9:00am - 3:00pm", "phone": "(650) 617-4300", "addr1": "345 Middlefield Rd", "zip": 94025, "name": "Peninsula Vet Center", "city": "Menlo Park", "website": "http:\/\/www.va.gov\/directory\/guide\/facility.asp?ID=5072", "dlon": -122.170302, "address": "345 Middlefield Rd\nMenlo Park, CA 94025" }, "geometry": { "type": "Point", "coordinates": [ -122.170302, 37.457682, 0.0 ] } },
{ "type": "Feature", "properties": { "dlat": 37.530648, "state": "CA", "services": "Serves Areas: San Mateo, Burlingame, Millbrae, Hillsborough, Belmont, San Carlos, Foster City", "addr2": "", "hours": "", "phone": "(650) 347 3648", "addr1": "4031 Pacific Blvd", "zip": 94402, "name": "Samaritan House", "city": "San Mateo", "website": "", "dlon": -122.288398, "address": "4031 Pacific Blvd\nSan Mateo, CA 94402" }, "geometry": { "type": "Point", "coordinates": [ -122.288398, 37.530648, 0.0 ] } },
{ "type": "Feature", "properties": { "dlat": 37.632020, "state": "CA", "services": "Assistance with benefits and claims submission", "addr2": "Building 2, Room 2-350", "hours": "Every 3rd Wednesday 9:00am - 3:00pm", "phone": "(650) 738-7060", "addr1": "3300 College Dr", "zip": 94066, "name": "Skyline College", "city": "San bruno", "website": "http:\/\/www.skylinecollege.edu\/veterans\/", "dlon": -122.464556, "address": "3300 College Dr\nSan bruno, CA 94066" }, "geometry": { "type": "Point", "coordinates": [ -122.464556, 37.63202, 0.0 ] } },
{ "type": "Feature", "properties": { "dlat": 37.634683, "state": "CA", "services": "Assistance with benefits and claims submission", "addr2": "Suite 300", "hours": "Every other Monday 9:00am - 3:00pm", "phone": "(650) 615-6000", "addr1": "1001 Sneath Lane", "zip": 94066, "name": "VA San Bruno", "city": "San Bruno", "website": "http:\/\/www.sanfrancisco.va.gov\/locations\/sanbruno.asp", "dlon": -122.425896, "address": "1001 Sneath Lane\nSan Bruno, CA 94066" }, "geometry": { "type": "Point", "coordinates": [ -122.425896, 37.634683, 0.0 ] } },
{ "type": "Feature", "properties": { "dlat": 37.466105, "state": "CA", "services": "Assistance with benefits and claims submission", "addr2": "Building 323-C", "hours": "Tuesday 8:30am-3:00pm", "phone": "(650) 566-0240", "addr1": "795 Willow Rd", "zip": 94025, "name": "Veteran Resource Center", "city": "Menlo Park", "website": "http:\/\/www.vetsresource.org\/vrc-next-step.html", "dlon": -122.156885, "address": "795 Willow Rd\nMenlo Park, CA 94025" }, "geometry": { "type": "Point", "coordinates": [ -122.156885, 37.466105, 0.0 ] } },
{ "type": "Feature", "properties": { "dlat": 37.644575, "state": "CA", "services": "Serves Areas: South San Francisco, San Bruno, Brisbane", "addr2": "", "hours": "", "phone": "(650) 276 4101", "addr1": "1486 Huntington Ave", "zip": 94080, "name": "YMCA Community Resource Center", "city": "South San Francisco", "website": "", "dlon": -122.422096, "address": "1486 Huntington Ave South\nSan Francisco, CA 94080" }, "geometry": { "type": "Point", "coordinates": [ -122.422096, 37.644575, 0.0 ] } }
]
}
